City_ID,City,Country,Max Temp,Current Description,Lat,Lng,Hotel Name
3,Hasaki,JP,91.29,overcast clouds,35.7333,140.8333,Kamisu
13,Rikitea,PF,74.52,overcast clouds,-23.1203,-134.9692,Rikitea
15,Victoria,HK,92.03,overcast clouds,22.2855,114.1577,Hong Kong
17,Bethel,US,74.77,overcast clouds,41.3712,-73.414,Danbury
18,Touros,BR,74.3,few clouds,-5.1989,-35.4608,Touros
19,Kapaa,US,82.72,light rain,22.0752,-159.319,Kapaʻa
21,Horta,PT,71.2,broken clouds,38.5333,-28.6333,Horta
22,Biak,ID,83.37,broken clouds,-0.9131,122.8766,CV. Karya Alam Perkasa
23,Kahului,US,81.66,scattered clouds,20.8947,-156.47,Kahului
24,Kloulklubed,PW,81.1,overcast clouds,7.0419,134.2556,Klouklubed
28,Tual,ID,80.98,overcast clouds,-5.6667,132.75,Tual
32,Brewster,US,75.0,overcast clouds,41.3973,-73.6171,Carmel Hamlet
34,Ponta Do Sol,PT,72.23,clear sky,32.6667,-17.1,Ribeira Brava
36,Samarai,PG,79.18,moderate rain,-10.6167,150.6667,Sidudu
37,Gat,IL,77.68,clear sky,31.61,34.7642,Kiryat Gat
39,Arraial Do Cabo,BR,70.09,clear sky,-22.9661,-42.0278,Arraial do Cabo
41,Airai,TL,76.75,broken clouds,-8.9266,125.4092,Atsabe
44,Awjilah,LY,78.48,clear sky,29.1081,21.2869,Awjilah
47,Shenjiamen,CN,80.49,overcast clouds,29.9576,122.298,Zhoushan
49,Lorengau,PG,84.99,clear sky,-2.0226,147.2712,Lorengau
52,Imeni Poliny Osipenko,RU,79.86,overcast clouds,52.4201,136.4853,Imeni Poliny Osipenko
53,Sola,VU,81.27,overcast clouds,-13.8833,167.55,Sola
54,Tura,IN,82.74,overcast clouds,25.5198,90.2201,Tura
55,Westport,US,78.98,scattered clouds,41.1415,-73.3579,Norwalk
59,Honiara,SB,83.57,overcast clouds,-9.4333,159.95,Honiara
61,Pemberton,CA,75.06,clear sky,50.3164,-122.8027,Pemberton
62,Atuona,PF,77.95,clear sky,-9.8,-139.0333,Atuona
63,Puerto Ayora,EC,71.24,few clouds,-0.7393,-90.3518,Puerto Ayora
64,Bonthe,SL,76.51,overcast clouds,7.5264,-12.505,Bonthe
68,Talavera,PH,86.54,heavy intensity rain,15.6167,120.9333,Talavera
69,Bartica,GY,77.32,broken clouds,6.4,-58.6167,Bartica
71,Ishigaki,JP,87.93,broken clouds,24.3448,124.1572,Ishigaki
73,Manokwari,ID,84.42,overcast clouds,-0.8667,134.0833,Manokwari
78,Dayong,CN,92.88,light rain,25.0209,118.2898,Quanzhou
80,Cabo San Lucas,MX,87.1,clear sky,22.8909,-109.9124,Cabo San Lucas
82,Zhaodong,CN,82.42,overcast clouds,46.0833,125.9833,Suihua
83,Bardiyah,LY,77.09,clear sky,31.7561,25.0865,Bardiyah
84,Dawei,MM,83.07,light rain,14.0833,98.2,Dawei
86,Poya,NC,74.25,clear sky,-21.35,165.15,Poya
89,Fortuna,US,74.48,scattered clouds,40.5982,-124.1573,Fortuna
90,Itarema,BR,77.31,few clouds,-2.9248,-39.9167,Itarema
92,Butaritari,KI,81.66,overcast clouds,3.0707,172.7902,Ukiangang
93,Jiayuguan,CN,86.72,scattered clouds,39.8167,98.3,Jiayuguan City
94,Poum,NC,72.55,clear sky,-20.2333,164.0167,Poum
96,Vostok,RU,87.76,broken clouds,46.4856,135.8833,Vostok
97,Tymovskoye,RU,90.34,scattered clouds,50.8456,142.655,Tymovskoye
98,Belmonte,BR,70.3,clear sky,-15.8631,-38.8828,Belmonte
99,Labuhan,ID,86.76,clear sky,-6.8844,112.2051,Musholla Babut Taubat
102,Asau,RO,70.39,few clouds,46.4333,26.4,Comănești
103,Hilo,US,80.33,moderate rain,19.7297,-155.09,Hilo
107,Noumea,NC,77.0,few clouds,-22.2763,166.4572,Nouméa
108,Pasighat,IN,90.84,broken clouds,28.0667,95.3333,Nyingchi
110,Nilanga,IN,76.42,overcast clouds,18.1,76.7667,Nilanga
112,Port Macquarie,AU,77.9,clear sky,-31.4333,152.9167,Port Macquarie
113,Verkhnevilyuysk,RU,78.39,few clouds,63.4453,120.3167,Verkhneviliuisk
117,Dabola,GN,71.56,overcast clouds,10.75,-11.1167,Dabola
121,Cockburn Town,TC,81.66,scattered clouds,21.4612,-71.1419,Cockburn Town
126,Padang,ID,84.02,overcast clouds,-0.9492,100.3543,Padang
131,Katsuura,JP,87.91,moderate rain,35.1333,140.3,Katsuura
133,San Patricio,US,84.83,few clouds,28.017,-97.5169,Sinton
134,Shahi,IN,85.3,overcast clouds,28.55,79.3167,Shahi
135,Valverde Del Camino,ES,71.44,clear sky,37.5751,-6.7543,Valverde del Camino
137,Aksu,CN,94.5,overcast clouds,41.1231,80.2644,Aksu Prefecture
140,Kavieng,PG,84.09,light rain,-2.5744,150.7967,Kaewieng
141,Kinablangan,PH,88.34,broken clouds,7.6947,126.5503,Baganga
142,Cayenne,GF,81.09,clear sky,4.9333,-52.3333,Cayenne
143,Lipari,IT,81.09,clear sky,38.4674,14.954,Lipari
144,Xinqing,CN,88.27,light rain,48.2333,129.5,Yichun
146,Nemuro,JP,86.43,few clouds,43.3236,145.575,Nemuro
148,Kalmunai,LK,87.13,overcast clouds,7.4167,81.8167,Kalmunai
150,Isperih,BG,70.99,clear sky,43.7167,26.8333,Isperih
153,Avarua,CK,77.05,few clouds,-21.2078,-159.775,Avarua District
154,Bhadasar,IN,84.7,overcast clouds,28.2833,74.3167,Bhadasar Utrada
158,Yumen,CN,88.02,clear sky,40.2833,97.2,Jiuquan
159,Hithadhoo,MV,80.74,broken clouds,-0.6,73.0833,Addu City
162,Namatanai,PG,84.76,scattered clouds,-3.6667,152.4333,Namatanai
165,Amnat Charoen,TH,88.41,overcast clouds,15.9167,104.75,Khuem Yai
166,Ulladulla,AU,71.87,broken clouds,-35.35,150.4667,Ulladulla
170,Isangel,VU,78.91,scattered clouds,-19.55,169.2667,Isangel
171,Saint George,US,91.63,clear sky,37.1041,-113.5841,St. George
172,Vaitape,PF,77.4,light rain,-16.5167,-151.75,Vaitape
174,Alice Springs,AU,74.75,overcast clouds,-23.7,133.8833,Alice Springs
180,West Wendover,US,87.01,clear sky,40.7391,-114.0733,Wendover
181,Paracelis,PH,87.66,moderate rain,17.2667,121.4667,Tabuk
184,Seoul,KR,93.61,scattered clouds,37.5683,126.9778,Seoul
186,Brainerd,US,79.05,clear sky,46.358,-94.2008,Brainerd
187,Derzhavinsk,KZ,71.98,clear sky,51.1,66.3167,Derzhavinsk
188,Meulaboh,ID,84.49,scattered clouds,4.1363,96.1285,Meulaboh
189,Mindelo,CV,76.55,broken clouds,16.8901,-24.9804,Mindelo
191,Puerto Colombia,CO,77.09,overcast clouds,10.9878,-74.9547,Sabanilla Montecarmelo
192,Bathsheba,BB,81.21,few clouds,13.2167,-59.5167,Wilson Hill
193,Gizo,SB,83.52,light rain,-8.103,156.8419,Gizo
194,Kieta,PG,83.55,light rain,-6.2167,155.6333,Kieta
197,Portland,US,84.2,scattered clouds,45.5234,-122.6762,Portland
198,Mangrol,IN,82.26,overcast clouds,21.1167,70.1167,Mangrol
199,Cabra,ES,75.9,clear sky,37.4725,-4.4421,Cabra
201,Gamba,GA,72.45,overcast clouds,-2.65,10.0,Foundou
203,Bintulu,MY,90.01,scattered clouds,3.1667,113.0333,Bintulu
207,Eirunepe,BR,75.31,broken clouds,-6.6603,-69.8736,Eirunepé
208,Qadian,IN,77.29,heavy intensity rain,31.8178,75.3919,Qadian
209,Sao Filipe,CV,73.83,clear sky,14.8961,-24.4956,Sao Filipe
216,East Hemet,US,93.52,scattered clouds,33.74,-116.9389,Hemet
217,Marang,MY,87.71,broken clouds,5.2056,103.2059,Kuala Terengganu
222,Ribeira Grande,PT,72.01,broken clouds,38.5167,-28.7,Horta
224,Stony Plain,CA,71.58,clear sky,53.5334,-114.0021,Spruce Grove
225,Asheville,US,73.17,few clouds,35.6009,-82.554,Asheville
226,Koutsouras,GR,79.36,clear sky,35.0339,25.9469,Makry Gialos
227,Balad,IQ,94.6,clear sky,34.0164,44.1453,Ishaqi
228,Port-Gentil,GA,75.31,scattered clouds,-0.7193,8.7815,Port-Gentil
229,Taiyuan,CN,76.86,few clouds,37.8694,112.5603,Taiyuan
230,Nalut,LY,74.8,clear sky,30.3333,10.85,
232,Luganville,VU,78.51,broken clouds,-15.5333,167.1667,Luganville
233,Atar,MR,84.24,few clouds,20.5169,-13.0499,Atar
234,Tautira,PF,78.82,broken clouds,-17.7333,-149.15,Tautira
238,Yonago,JP,85.93,scattered clouds,35.4333,133.3333,Yonago
240,Sokolo,ML,82.18,overcast clouds,14.7328,-6.1219,Sokolo
241,Beatrice,US,84.0,clear sky,40.2681,-96.747,Beatrice
243,Murindo,CO,74.32,overcast clouds,6.9848,-76.7544,Modern Flovored Dress
244,Tevaitoa,PF,77.27,light rain,-16.7833,-151.5,Uturoa
247,Hangal,IN,74.39,overcast clouds,14.7667,75.1333,Hangal
248,Faanui,PF,77.81,light rain,-16.4833,-151.75,Vaitape
249,Tayu,ID,86.59,few clouds,-6.5397,111.0518,Taju
250,Tarbagatay,RU,74.73,few clouds,51.4803,107.3602,Tarbagatay
251,Khatanga,RU,87.49,clear sky,71.9667,102.5,Chatanga
252,Japura,ID,89.53,broken clouds,-0.3167,102.35,Djapoera
253,Alofi,NU,75.09,light rain,-19.0595,-169.9187,Alofi
254,Luang Prabang,LA,85.96,broken clouds,19.8856,102.1347,Luang Prabang
255,Half Moon Bay,US,77.63,few clouds,37.4636,-122.4286,Half Moon Bay
256,Auki,SB,85.46,broken clouds,-8.7676,160.7034,Auki
257,Soyo,AO,72.82,overcast clouds,-6.1349,12.3689,Soyo
260,Ambon,ID,84.34,scattered clouds,-3.6954,128.1814,Teluk Ambon
264,Panguna,PG,77.31,light rain,-6.3164,155.4848,Panguna
266,Kungurtug,RU,70.57,scattered clouds,50.5994,97.5228,Kungurtug
271,Russell,US,76.23,scattered clouds,32.3502,-85.1999,Russell County High School
280,Galle,LK,81.41,overcast clouds,6.0367,80.217,Galle
281,Jalu,LY,78.96,clear sky,29.0331,21.5482,Jalu
282,Kidal,ML,83.16,broken clouds,18.4411,1.4078,Kidal
284,Kijang,KR,91.13,scattered clouds,35.2442,129.2139,Busan
286,Najran,SA,81.25,few clouds,17.4924,44.1277,Najran
287,Mayumba,GA,72.7,overcast clouds,-3.432,10.6554,Mayumba
289,Salalah,OM,77.09,light intensity drizzle,17.0151,54.0924,Salalah
290,Rostovka,RU,70.2,broken clouds,55.3842,71.8891,Rostovka
291,Denpasar,ID,82.06,scattered clouds,-8.65,115.2167,Denpasar
292,Bougouni,ML,73.63,moderate rain,11.417,-7.479,Bougouni
295,Kurilsk,RU,72.54,clear sky,45.2333,147.8833,Kurilsk
298,Mahdasht,IR,84.42,few clouds,35.7299,50.8111,Mahdasht
300,Carutapera,BR,77.11,overcast clouds,-1.195,-46.02,Carutapera
301,Mount Isa,AU,85.77,clear sky,-20.7333,139.5,Mount Isa
303,Altamira,BR,72.23,clear sky,-3.2033,-52.2064,Altamira
304,Mathbaria,BD,79.12,overcast clouds,22.2876,89.9593,Mathbaria
307,Destin,US,82.02,broken clouds,30.3935,-86.4958,Destin
309,Meadow Lake,US,73.11,overcast clouds,34.8014,-106.5436,Meadow Lake
310,Palasa,IN,88.34,overcast clouds,18.7667,84.4167,Palasa at Kasibugga
311,Bozdar,PK,86.07,overcast clouds,27.1828,68.636,Bozdar Wada
312,Jilib,SO,74.89,overcast clouds,0.4883,42.7854,Jilib
313,Ati,TD,74.01,overcast clouds,13.2154,18.3353,Ati
315,Alugan,PH,92.34,overcast clouds,12.2188,125.4808,San Policarpo
317,Arlit,NE,83.25,broken clouds,18.7369,7.3853,Arlit
318,Flinders,AU,76.21,broken clouds,-34.5833,150.8552,Wollongong
319,Amahai,ID,82.49,broken clouds,-3.3333,128.9167,Amahai
320,Minas De Barroteran,MX,87.69,overcast clouds,27.6333,-101.2833,Minas de Barroterán
326,Matara,LK,82.36,overcast clouds,5.9485,80.5353,Matara
327,Tabou,CI,76.33,overcast clouds,4.423,-7.3528,Tabou
328,Sabang,ID,83.35,overcast clouds,5.8933,95.3214,Sabang
329,Kapoeta,SS,71.17,light rain,4.7717,33.5903,Kapoeta
331,Mecca,SA,81.05,overcast clouds,21.4267,39.8261,Mecca
332,Catuday,PH,82.09,moderate rain,16.2923,119.8062,Bolinao
334,Wuwei,CN,87.71,clear sky,37.9281,102.6414,Wuwei
338,Dzhebariki-Khaya,RU,71.91,scattered clouds,62.2167,135.8,Dzhebariki-Khaya
340,Angoram,PG,87.06,scattered clouds,-4.0625,144.0661,Angoram
346,Ahuimanu,US,87.51,light rain,21.4447,-157.8378,Honolulu
347,Darab,IR,90.61,overcast clouds,28.7519,54.5444,Darab
351,San Andres,CO,82.42,broken clouds,12.5847,-81.7006,San Andrés
353,Ust-Maya,RU,76.21,few clouds,60.4167,134.5333,Resurs
355,Nanakuli,US,87.75,scattered clouds,21.3906,-158.1547,Nānākuli
356,Teluknaga,ID,86.18,broken clouds,-6.0989,106.6381,Tangerang
357,Braganca,BR,73.69,broken clouds,-1.0536,-46.7656,Bragança
358,Pisticci,IT,79.83,clear sky,40.3906,16.5568,Pisticci
359,Trincomalee,LK,85.23,overcast clouds,8.5711,81.2335,Trincomalee
360,Malakal,SS,70.02,overcast clouds,9.5334,31.6605,Malakal
362,Bengkulu,ID,84.42,broken clouds,-3.8004,102.2655,Bengkulu
363,Vila Velha,BR,73.35,clear sky,-20.3297,-40.2925,Vila Velha
364,Key West,US,87.8,clear sky,24.5557,-81.7826,Key West
365,Sokoni,TZ,73.26,clear sky,-6.4333,39.55,Makunduchi
367,Pundaguitan,PH,84.94,broken clouds,6.3711,126.1689,Mati
368,Aykhal,RU,85.53,scattered clouds,66.0,111.5,Aikhal
369,Kudahuvadhoo,MV,80.65,light rain,2.6708,72.8944,Kudahuvadhoo
370,Kodinsk,RU,75.54,overcast clouds,58.6881,99.1844,Kodinsk
373,Tambacounda,SN,84.25,clear sky,13.7539,-13.7586,Sitokoto
374,Georgetown,MY,89.55,few clouds,5.4112,100.3354,George Town
375,Qandala,SO,86.25,broken clouds,11.472,49.8728,Qandala
376,Cuencame,MX,78.8,overcast clouds,24.8711,-103.6964,Cuencamé
377,Guthrie,US,86.67,clear sky,35.8789,-97.4253,Guthrie
378,Campo Maior,BR,75.76,broken clouds,-4.8278,-42.1686,Campo Maior
379,Havelock,US,82.94,broken clouds,34.8791,-76.9013,Havelock
381,Fort Morgan,US,81.82,clear sky,40.2503,-103.8,Fort Morgan
383,Ulaangom,MN,73.9,clear sky,49.9811,92.0667,Ulaangom
384,Acarau,BR,77.05,few clouds,-2.8856,-40.12,Acaraú
385,Lhokseumawe,ID,87.46,overcast clouds,5.1801,97.1507,Lhokseumawe
386,Zhangye,CN,87.91,few clouds,38.9342,100.4517,Zhangye
388,Moranbah,AU,78.96,clear sky,-22.0016,148.0466,Moranbah
389,Caohe,CN,82.0,overcast clouds,30.2297,115.4335,Huanggang
391,Sosua,DO,78.78,few clouds,19.7667,-70.5167,Sosúa
393,Quzhou,CN,89.29,scattered clouds,28.9594,118.8686,Quzhou
395,Bilma,NE,86.07,overcast clouds,18.6853,12.9164,Bilma
400,East Stroudsburg,US,72.84,overcast clouds,40.9995,-75.1813,Stroudsburg
401,Kandrian,PG,82.94,light rain,-6.2167,149.55,Kandrian
402,Vilyuysk,RU,76.96,few clouds,63.7553,121.6247,Vilyuysk
403,Port Moresby,PG,87.22,haze,-9.4431,147.1797,Port Moresby
404,Avera,US,82.27,light rain,33.194,-82.5271,Avera
408,Darhan,MN,72.88,broken clouds,49.4867,105.9228,Darkhan
411,Nanzhang,CN,85.19,light rain,31.7765,111.8386,Xiangyang
412,Langham,CA,78.03,broken clouds,52.3668,-106.9679,Langham
417,Jiwani,PK,82.69,overcast clouds,25.05,61.7417,Jīwani
422,Koson,UZ,82.72,clear sky,39.0375,65.585,Kasan
423,Iracoubo,GF,77.23,clear sky,5.4802,-53.2011,Iracoubo
426,Vanimo,PG,83.57,scattered clouds,-2.6741,141.3028,Vanimo
428,Hambantota,LK,86.34,overcast clouds,6.1241,81.1185,Hambantota
429,Porto Novo,BJ,76.82,overcast clouds,6.4965,2.6036,Porto-Novo
430,Gradistea,RO,74.1,clear sky,44.2333,27.2167,Călărași
434,Tres Picos,MX,78.55,broken clouds,15.8667,-93.5333,Tres Picos
435,Manaure,CO,81.5,broken clouds,11.7751,-72.4445,Manaure
437,Erzin,TR,83.12,clear sky,36.9559,36.2,Erzin
438,Shimoda,JP,84.56,overcast clouds,34.6667,138.95,Shimoda
439,Santa Rosa,PH,81.91,moderate rain,14.3122,121.1114,Santa Rosa
440,Puerto Escondido,MX,77.83,broken clouds,15.85,-97.0667,Puerto Escondido
441,Gigmoto,PH,87.55,overcast clouds,13.7796,124.39,Gigmoto
442,Mokhsogollokh,RU,75.6,few clouds,61.4681,128.9203,
444,Price,US,78.06,clear sky,39.5994,-110.8107,Price
445,Xam Nua,LA,82.22,overcast clouds,20.4197,104.0439,Sam Nuea
449,Niceville,US,81.95,overcast clouds,30.5169,-86.4822,Valparaiso
450,Alta Floresta,BR,71.04,clear sky,-9.8756,-56.0861,Alta Floresta
451,Doha,QA,94.98,haze,25.2867,51.5333,Doha
455,Old Saybrook,US,74.39,scattered clouds,41.2918,-72.3762,Essex
457,Baghdad,IQ,89.51,clear sky,33.3406,44.4009,Baghdad
458,Venkatagiri,IN,86.47,overcast clouds,13.9667,79.5833,Venkatagiri
460,Karratha,AU,78.28,few clouds,-20.7377,116.8463,Karratha
466,Sterling,US,79.16,clear sky,39.0062,-77.4286,Sterling
467,Trairi,BR,76.55,few clouds,-3.2778,-39.2689,Trairi
468,Avenal,US,94.82,clear sky,36.0041,-120.129,Avenal
469,Saint-Georges,GD,80.28,few clouds,12.0564,-61.7485,Saint George's
472,Staunton,US,76.68,overcast clouds,38.1496,-79.0717,Staunton
474,Tezonapa,MX,73.69,broken clouds,18.6092,-96.6917,Cosolapa
476,La Reforma,MX,89.15,clear sky,25.0833,-108.05,La Reforma
477,Pimenta Bueno,BR,74.39,scattered clouds,-11.6725,-61.1936,Pimenta Bueno
479,Pasni,PK,82.33,overcast clouds,25.2631,63.471,Pasni
480,Shache,CN,94.26,broken clouds,38.4167,77.2406,Kashgar Prefecture
482,Adrar,MR,83.95,overcast clouds,20.5022,-10.0711,
484,Athens,GR,83.8,clear sky,37.9795,23.7162,Athens
488,Nhulunbuy,AU,81.21,broken clouds,-12.2333,136.7667,Nhulunbuy
489,Buala,SB,83.55,light rain,-8.145,159.5921,Buala
492,Fort-Shevchenko,KZ,78.94,overcast clouds,44.5086,50.263,Fort-Shevchenko
495,Salinas,US,75.42,clear sky,36.6777,-121.6555,Salinas
498,Anqing,CN,83.62,overcast clouds,30.5092,117.0506,Anqing
503,Tyrma,RU,82.72,broken clouds,50.0833,132.1667,Kazarma 180 Kilometr
504,Artyom,AZ,77.14,broken clouds,40.4723,50.333,Pirallahi
507,Sinnamary,GF,77.23,clear sky,5.3833,-52.95,Sinnamary
508,Orlik,RU,70.88,light rain,52.5178,99.825,Orlik
509,Pacific Grove,US,71.15,scattered clouds,36.6177,-121.9166,Monterey
511,Araouane,ML,90.77,scattered clouds,18.9048,-3.5265,Araouane
513,Atambua,ID,85.89,broken clouds,-9.1061,124.8925,Atambua
514,Murgab,TM,76.87,clear sky,37.4966,61.9714,Mary
515,Mandan,US,83.41,scattered clouds,46.8267,-100.8896,Bismarck
519,Ranong,TH,84.13,light rain,9.9658,98.6348,Bang Rin
521,Labelle,US,82.98,overcast clouds,26.7617,-81.4384,LaBelle
524,Vanavara,RU,88.99,clear sky,60.34,102.2797,Vanavara
525,Orbetello,IT,73.8,few clouds,42.4408,11.2196,Orbetello
526,Kawalu,ID,79.39,broken clouds,-7.3817,108.2082,Tasikmalaya
528,Puerto Baquerizo Moreno,EC,71.29,clear sky,-0.9,-89.6,Puerto Baquerizo Moreno
530,Nueva Rosita,MX,86.22,overcast clouds,27.95,-101.2167,Nueva Rosita
531,Jimenez,MX,86.74,scattered clouds,28.3333,-105.4,Arenillas
532,Karaton,ID,84.36,scattered clouds,-6.3424,106.1045,Pandeglang
533,Along,IN,92.41,broken clouds,28.1667,94.7667,Nyingchi
534,Boffa,GN,75.49,light rain,10.1667,-14.0333,Boffa
535,Kurmanayevka,RU,70.45,scattered clouds,52.5093,52.0675,Kurmanayevka
538,Aloleng,PH,83.75,light rain,16.1307,119.7824,Agno
539,Axim,GH,75.96,overcast clouds,4.8699,-2.2405,Axim
540,Kununurra,AU,91.38,few clouds,-15.7667,128.7333,Kununurra
544,Yazman,PK,90.82,overcast clouds,29.1212,71.7446,Yazman Mandi
546,San Ramon,US,85.66,clear sky,37.7799,-121.978,San Ramon
548,Ojiya,JP,83.39,scattered clouds,37.3,138.8,Nagaoka
549,Diffa,NE,75.18,overcast clouds,13.3154,12.6113,Diffa
550,Komsomolskiy,UZ,84.92,clear sky,40.4272,71.7189,Fergana
551,Bhatkal,IN,80.11,overcast clouds,13.9667,74.5667,Bhatkal
552,Eyl,SO,79.68,overcast clouds,7.9803,49.8164,Eyl
553,Sao Jose Da Coroa Grande,BR,73.67,clear sky,-8.8978,-35.1478,São José da Coroa Grande
554,Naze,JP,83.32,broken clouds,28.3667,129.4833,Amami
555,Mitsamiouli,KM,75.54,clear sky,-11.3847,43.2844,Mitsamiouli
556,Marrakesh,MA,73.47,clear sky,31.6315,-8.0083,Marrakesh
557,Santa Ana,US,87.98,few clouds,33.7456,-117.8678,Santa Ana
559,Shizunai,JP,79.9,broken clouds,42.3339,142.3669,Shinhidaka
567,Ukiah,US,87.69,clear sky,39.1502,-123.2078,Ukiah
568,Lashio,MM,73.47,overcast clouds,22.9333,97.75,Lashio
570,Villafranca De Los Barros,ES,70.83,clear sky,38.5614,-6.3381,Villafranca de los Barros
572,Nguru,NG,73.24,light rain,12.8791,10.4526,Nguru
573,Mandalgovi,MN,73.76,broken clouds,45.7625,106.2708,Mandalgovi
574,Makakilo City,US,86.32,scattered clouds,21.3469,-158.0858,Kapolei
575,Byron Bay,AU,75.16,clear sky,-28.65,153.6167,Byron Bay
577,Buluang,PH,87.08,light rain,13.3068,123.3425,Libon
578,Netanya,IL,78.82,clear sky,32.3329,34.8599,Netanya
581,Pangkalanbuun,ID,86.2,overcast clouds,-2.6833,111.6167,Pangkalan Bun
582,Ambulu,ID,84.88,few clouds,-8.345,113.6058,Sabrang
586,Davila,PH,83.86,heavy intensity rain,18.4726,120.5763,Pasuquin
587,Charlestown,AU,76.78,scattered clouds,-32.95,151.6667,Newcastle
588,Laguna,US,91.24,clear sky,38.421,-121.4238,Sacramento
589,Mauguio,FR,73.29,light rain,43.6181,4.0074,Mauguio
592,Bubaque,GW,79.83,light rain,11.2833,-15.8333,Bubaque
593,Tubuala,PA,78.33,overcast clouds,9.5167,-79.0333,Tubualá
594,Harper,LR,76.23,overcast clouds,4.375,-7.7169,Harper
595,Buchanan,LR,76.01,overcast clouds,5.8808,-10.0467,Buchanan
596,Vieste,IT,77.5,broken clouds,41.8825,16.175,Vieste
599,Shasta Lake,US,77.74,overcast clouds,40.6804,-122.3708,Redding
600,Kilindoni,TZ,74.46,light rain,-7.9139,39.6668,Kilindoni
602,Kolda,SN,80.91,overcast clouds,12.8833,-14.95,Kolda
604,Gaoual,GN,74.44,light rain,11.75,-13.2,Gaoual
612,Nong Chik,TH,88.92,broken clouds,6.8436,101.178,Rusamilae
613,Teahupoo,PF,73.36,broken clouds,-17.8333,-149.2667,Teahupo'o
614,Port Hedland,AU,82.45,scattered clouds,-20.3167,118.5667,Port Hedland
615,Merauke,ID,81.95,overcast clouds,-8.4667,140.3333,Urum
616,Garowe,SO,73.63,overcast clouds,8.4054,48.4845,Garowe
619,Kavaratti,IN,81.59,overcast clouds,10.5669,72.642,Kavaratti
620,Cinisi,IT,80.85,clear sky,38.1562,13.1073,Carini
621,Matay,EG,76.93,clear sky,28.419,30.7792,Matay
622,Berdigestyakh,RU,75.49,scattered clouds,62.0989,126.6992,Berdigestyakh
624,Trofors,NO,70.95,broken clouds,65.5333,13.4063,Trofors
625,Hervey Bay,AU,73.51,overcast clouds,-25.2986,152.8535,Hervey Bay
626,Umm Lajj,SA,86.85,broken clouds,25.0213,37.2685,Umluj
627,Tongchuan,CN,79.02,overcast clouds,35.0806,109.0897,Tongchuan
628,Maceio,BR,72.84,few clouds,-9.6658,-35.7353,Maceió
630,Sira,IN,77.27,overcast clouds,13.7453,76.9092,Sira
631,Riverton,US,87.04,clear sky,40.5219,-111.9391,Sandy
632,Kalamb,IN,75.83,overcast clouds,19.05,73.95,Narayangaon
633,Xuddur,SO,70.7,overcast clouds,4.1213,43.8894,Xuddur
638,Wilmington,US,82.31,clear sky,34.2257,-77.9447,Wilmington
639,Barguzin,RU,77.72,scattered clouds,53.6167,109.6167,Barguzin
640,Basoko,CD,73.92,overcast clouds,1.2391,23.616,Basoko
641,The Valley,AI,82.26,clear sky,18.217,-63.0578,The Valley
643,Kyren,RU,76.03,few clouds,51.6828,102.1408,Kyren
644,Mundwa,IN,82.96,overcast clouds,27.0667,73.8167,Mundwa
646,Amarante Do Maranhao,BR,73.27,scattered clouds,-5.5667,-46.7422,Amarante do Maranhão
648,Nianzishan,CN,80.55,scattered clouds,47.5167,122.8833,Qiqihar
651,Luis Correia,BR,78.62,broken clouds,-2.8792,-41.6669,Parnaíba
653,Kismayo,SO,76.55,overcast clouds,-0.3582,42.5454,Kismayo
654,Dorado,PR,81.1,broken clouds,18.4588,-66.2677,Dorado
655,Praia Da Vitoria,PT,72.75,broken clouds,38.7333,-27.0667,Praia da Vitória
661,Pierre,US,92.86,clear sky,44.3683,-100.351,Pierre
662,Madang,PG,84.99,broken clouds,-5.2246,145.7966,Madang
664,Fairhope,US,83.95,broken clouds,30.523,-87.9033,Fairhope
665,Celestun,MX,80.49,scattered clouds,20.8667,-90.4,Celestún
666,Mareeba,AU,80.44,clear sky,-17.0,145.4333,Mareeba
669,Nelson Bay,AU,78.76,broken clouds,-32.7167,152.15,Nelson Bay - Corlette
671,Ibra,OM,91.08,overcast clouds,22.6906,58.5334,Ibra
672,Novoilinsk,RU,78.8,few clouds,51.6829,108.7143,Novoil'insk
676,San Policarpo,PH,92.03,overcast clouds,12.1791,125.5072,Oras
679,Ixtapa,MX,77.23,broken clouds,20.7,-105.2,Puerto Vallarta
680,Galveston,US,84.96,scattered clouds,29.3669,-94.9669,Texas City
681,Yenagoa,NG,71.89,overcast clouds,4.9247,6.2642,Yenagoa
682,Kirakira,SB,84.29,scattered clouds,-10.4544,161.9205,Arohane
683,Manggar,ID,84.88,overcast clouds,-2.8833,108.2667,Manggar
684,Sorong,ID,86.23,light rain,-0.8833,131.25,Sorong
687,Sibolga,ID,85.51,broken clouds,1.7427,98.7792,Sibolga
688,Rongcheng,CN,86.07,overcast clouds,30.634,117.8517,Chizhou
689,Hobyo,SO,76.75,overcast clouds,5.3505,48.5268,Hobyo
691,Joshimath,IN,78.08,moderate rain,30.5667,79.5667,Joshimath
695,Port Blair,IN,82.87,overcast clouds,11.6667,92.75,Port Blair
697,Bam,IR,86.61,overcast clouds,29.106,58.357,Bam
698,Namtsy,RU,75.31,clear sky,62.7161,129.6658,Namtsy
699,Balao,EC,72.5,overcast clouds,-2.9167,-79.8167,Cantón Balao
704,Tessalit,ML,85.75,broken clouds,20.1986,1.0114,Achemelmel
706,Kizukuri,JP,74.25,overcast clouds,40.8061,140.3861,Goshogawara
707,Tiarei,PF,78.82,broken clouds,-17.5333,-149.3333,Maha'ena
709,Birjand,IR,75.67,haze,32.8663,59.2211,Birjand
711,Rexburg,US,83.71,clear sky,43.826,-111.7897,Rexburg
